[
  {
    "id": 1,
    "projectName": "Project Alpha",
    "projectManager": "Alice Johnson",
    "duration": "11.5 Months",
    "status": "completed",
    "progress": 100,
    "clientName": "Innovate Corp",
    "country": "United States",
    "type": "utilities",
    "link": "https://cyient.com/projects/alpha",
    "location": {
      "city": "New York",
      "coordinates": { "lat": 40.7128, "lng": -74.006 },
      "address": "Manhattan, NY"
    }
  },
  {
    "id": 2,
    "projectName": "Project Beta",
    "projectManager": "Bob Williams",
    "duration": "12 Months",
    "status": "in-progress",
    "progress": 55,
    "clientName": "Tech Solutions Ltd.",
    "country": "Canada",
    "type": "utilities",
    "link": "https://cyient.com/projects/beta",
    "location": {
      "city": "Toronto",
      "coordinates": { "lat": 43.6532, "lng": -79.3832 },
      "address": "Downtown Toronto, ON"
    }
  },
  {
    "id": 3,
    "projectName": "Network Vision",
    "projectManager": "Jane Doe",
    "duration": "18 Months",
    "status": "completed",
    "progress": 100,
    "clientName": "UKPN",
    "country": "United Kingdom",
    "type": "utilities",
    "link": "https://cyient.com/projects/network-vision",
    "location": {
      "city": "London",
      "coordinates": { "lat": 51.5074, "lng": -0.1278 },
      "address": "Central London, UK"
    },
    "clients": [
      {
        "name": "National Grid",
        "location": "Warwick",
        "coordinates": { "lat": 52.282, "lng": -1.5944 }
      },
      {
        "name": "Scottish and Southern Electricity Networks",
        "location": "Perth, Scotland",
        "coordinates": { "lat": 56.395, "lng": -3.4308 }
      },
      {
        "name": "SP Energy Networks",
        "location": "Glasgow, Scotland",
        "coordinates": { "lat": 55.8642, "lng": -4.2518 }
      },
      {
        "name": "Northern Powergrid",
        "location": "Newcastle upon Tyne",
        "coordinates": { "lat": 54.9783, "lng": -1.6178 }
      },
      {
        "name": "Electricity North West",
        "location": "Warrington",
        "coordinates": { "lat": 53.391, "lng": -2.593 }
      }
    ]
  },
  {
    "id": 4,
    "projectName": "Project Delta",
    "projectManager": "Diana Prince",
    "duration": "8.3 Months",
    "status": "in-progress",
    "progress": 24,
    "clientName": "Future Systems",
    "country": "Germany",
    "type": "geospatial",
    "link": "https://cyient.com/projects/delta",
    "location": {
      "city": "Berlin",
      "coordinates": { "lat": 52.52, "lng": 13.405 },
      "address": "Berlin-Mitte, Germany"
    }
  },
  {
    "id": 5,
    "projectName": "Project Epsilon",
    "projectManager": "Eve Adams",
    "duration": "1.5 Months",
    "status": "rejected",
    "progress": 0,
    "clientName": "Data Ventures",
    "country": "India",
    "type": "geospatial",
    "link": "https://cyient.com/projects/epsilon",
    "location": {
      "city": "Mumbai",
      "coordinates": { "lat": 19.076, "lng": 72.8777 },
      "address": "Bandra-Kurla Complex, Mumbai"
    }
  },
  {
    "id": 6,
    "projectName": "Project Zeta",
    "projectManager": "Farah Khan",
    "duration": "8.7 Months",
    "status": "in-progress",
    "progress": 15,
    "clientName": "Gulf Innovations",
    "country": "United Arab Emirates",
    "type": "utilities",
    "link": "https://cyient.com/projects/zeta",
    "location": {
      "city": "Dubai",
      "coordinates": { "lat": 25.2048, "lng": 55.2708 },
      "address": "Dubai Marina, UAE"
    }
  },
  {
    "id": 7,
    "projectName": "Project Theta",
    "projectManager": "George Miller",
    "duration": "6.2 Months",
    "status": "in-progress",
    "progress": 78,
    "clientName": "Tech Hub India",
    "country": "India",
    "type": "utilities",
    "link": "https://cyient.com/projects/theta",
    "location": {
      "city": "Bangalore",
      "coordinates": { "lat": 12.9716, "lng": 77.5946 },
      "address": "Electronic City, Bangalore"
    }
  },
  {
    "id": 8,
    "projectName": "Indoors",
    "projectManager": "Vamsi Pattamatta",
    "duration": "4 Months",
    "status": "in-progress",
    "progress": 50,
    "clientName": "In-house",
    "country": "United States",
    "type": "geospatial",
    "link": "https://inizuvm4dev.corp.cyient.com/portal/apps/experiencebuilder/experience/?id=caa11306b21e45ceb55dc94087cb58e",
    "location": {
      "city": "California",
      "coordinates": { "lat": 37.1661, "lng": -119.4494 },
      "address": "United States"
    },
    "clients": [
      {
        "name": "Lowell High School",
        "location": "San Francisco, CA",
        "coordinates": { "lat": 37.73, "lng": -122.48 }
      },
      {
        "name": "Troy High School",
        "location": "Fullerton, CA",
        "coordinates": { "lat": 33.88, "lng": -117.89 }
      },
      {
        "name": "Granada Hills Charter",
        "location": "Los Angeles, CA",
        "coordinates": { "lat": 34.26, "lng": -118.53 }
      },
      {
        "name": "Palo Alto High School",
        "location": "Palo Alto, CA",
        "coordinates": { "lat": 37.44, "lng": -122.16 }
      },
      {
        "name": "Beverly Hills High School",
        "location": "Beverly Hills, CA",
        "coordinates": { "lat": 34.06, "lng": -118.41 }
      }
    ]
  },
  {
    "id": 9,
    "projectName": "Project Lambda",
    "projectManager": "Ian Cooper",
    "duration": "7.1 Months",
    "status": "completed",
    "progress": 100,
    "clientName": "Delhi Infrastructure",
    "country": "India",
    "type": "utilities",
    "link": "https://cyient.com/projects/lambda",
    "location": {
      "city": "New Delhi",
      "coordinates": { "lat": 28.6139, "lng": 77.209 },
      "address": "Connaught Place, New Delhi"
    }
  }
]
